[{"id": 1, "nombre": "Banco de LOJA - Agencia UNL", "direccion": "Universidad Nacional de Loja, Arist\u00f3teles, La Argelia, Punzara, Loja, 110110, Ecuador", "horario": "9am -4pm", "telefono": "0979411882", "latitud": "-4.0336508372073165", "longitud": "-79.20285344123842"},{"id": 2, "nombre": "PuntoBB Banco Bolivariano", "direccion": "The diamond, 19-115, Avenida P\u00edo Jaramillo Alvarado, Tebaida, Punzara, Loja, 110150, Ecuador", "horario": "8am -5pm", "telefono": "0959963759", "latitud": "-4.011325617212999", "longitud": "-79.20470952987672"},{"id": 3, "nombre": "Agencia Banco de Loja", "direccion": "Avenida 8 de Diciembre, Nueva Granada, Loja, 110107, Ecuador", "horario": "9am -4pm", "telefono": "0959963759", "latitud": "-3.9760403797788744", "longitud": "-79.20447349548341"},{"id": 4, "nombre": "CoopMego", "direccion": "Notar\u00eda 1, 197-20, Antonio Jos\u00e9 de Sucre, Barrio 18 de Noviembre, Loja, 110103, Ecuador", "horario": "9am - 4pm", "telefono": "0991393134", "latitud": "-3.995733688403139", "longitud": "-79.20292854309083"},{"id": 5, "nombre": "BanEcuador", "direccion": "Mi Market, Bernardo Valdivieso, Barrio Sto. Domingo, Loja, 110108, Ecuador", "horario": "8am - 9pm", "telefono": "0985710661", "latitud": "-4.001898453171262", "longitud": "-79.20043945312501"}]