[{"id": 1, "nombre": "Banco de LOJA - Agencia UNL", "direccion": "Universidad Nacional de Loja, Arist\u00f3teles, La Argelia, Punzara, Loja, 110110, Ecuador", "horario": "9am -4pm", "telefono": "0979411882", "latitud": "-4.0336508372073165", "longitud": "-79.20285344123842"},{"id": 2, "nombre": "PuntoBB Banco Bolivariano", "direccion": "The diamond, 19-115, Avenida P\u00edo Jaramillo Alvarado, Tebaida, Punzara, Loja, 110150, Ecuador", "horario": "8am -5pm", "telefono": "0959963759", "latitud": "-4.011325617212999", "longitud": "-79.20470952987672"},{"id": 3, "nombre": "Agencia Banco de Loja", "direccion": "Avenida 8 de Diciembre, Nueva Granada, Loja, 110107, Ecuador", "horario": "9am -4pm", "telefono": "0959963759", "latitud": "-3.9760403797788744", "longitud": "-79.20447349548341"},{"id": 4, "nombre": "CoopMego", "direccion": "Notar\u00eda 1, 197-20, Antonio Jos\u00e9 de Sucre, Barrio 18 de Noviembre, Loja, 110103, Ecuador", "horario": "9am - 4pm", "telefono": "0991393134", "latitud": "-3.995733688403139", "longitud": "-79.20292854309083"},{"id": 5, "nombre": "BanEcuador", "direccion": "Mi Market, Bernardo Valdivieso, Barrio Sto. Domingo, Loja, 110108, Ecuador", "horario": "8am - 9pm", "telefono": "0985710661", "latitud": "-4.001898453171262", "longitud": "-79.20043945312501"},{"id": 6, "nombre": "Codesarrollo", "direccion": "Jose M. Samaniego, El Valle, Loja, 110107, Ecuador", "horario": "8am -5pm", "telefono": "0985710661", "latitud": "-3.979531561496164", "longitud": "-79.20095443725587"},{"id": 7, "nombre": "Banco Del Barrio", "direccion": "Atahualpa, San Pedro, Punzara, Loja, 110150, Ecuador", "horario": "8am - 10pm", "telefono": "93726361", "latitud": "-4.001065650744343", "longitud": "-79.21069622039796"},{"id": 8, "nombre": "ATM COAC", "direccion": "Barrio Las Palmeras, Loja, 110108, Ecuador", "horario": "9am -4pm", "telefono": "0994390652", "latitud": "-3.9992829824626837", "longitud": "-79.19185638427736"},{"id": 9, "nombre": "Banco de Machala", "direccion": "Indianapolis, Paris, Loja, 110107, Ecuador", "horario": "8am - 9pm", "telefono": "0970411882", "latitud": "-3.989397631888293", "longitud": "-79.19640541076662"},{"id": 10, "nombre": "Banco del Austro", "direccion": "Avenida Orillas del Zamora, Juan Jose Pe\u00f1a, Loja, 110108, Ecuador", "horario": "11am - 11pm", "telefono": "0994390652", "latitud": "-4.0000810029272", "longitud": "-79.19593334198"},{"id": 11, "nombre": "Produbanco", "direccion": "Automotriz Astudillo, 18 de Noviembre, Barrio Juan de Salinas, Loja, 110101, Ecuador", "horario": "8am - 10pm", "telefono": "0979411882", "latitud": "-3.993118198028466", "longitud": "-79.20404434204103"},{"id": 12, "nombre": "Banco Digital Lojano", "direccion": "Colegio de Bachillerato \"Daniel Alvarez Burneo\", Daniel Alvarez Burneo, Crist\u00f3bal Col\u00f3n, Loja, 110105, Ecuador", "horario": "8am - 9pm", "telefono": "0991393134", "latitud": "-3.9886076281707905", "longitud": "-79.20073986053468"},{"id": 13, "nombre": "BANCO NACIONAL DE FOMENTO.", "direccion": "Barrio Bolonia, Loja, 110102, Ecuador", "horario": "9am -4pm", "telefono": "0985710661", "latitud": "-3.9863459791208777", "longitud": "-79.24884796142578"},{"id": 14, "nombre": "BANCO AMAZONAS", "direccion": "Casa 228-87 Diego, 14123, Guinea Ecuatorial 228, San Pedro, Punzara, Loja, 110150, Ecuador", "horario": "8am - 10pm", "telefono": "0982991517", "latitud": "-4.004249025090823", "longitud": "-79.20885086059572"},{"id": 15, "nombre": "BANCO SUDAMERICANO", "direccion": "Catacocha, 10 de Agosto, Loja, 110110, Ecuador", "horario": "8am - 9pm", "telefono": "0985710661", "latitud": "-4.003906540359236", "longitud": "-79.20284271240236"}]